City_ID,City,Country,Date,Lat,Lng,Max Temp,Humidity,Cloudiness,Wind Speed,Current Description
0,Havre-Saint-Pierre,CA,2022-08-11 03:09:50,50.2334,-63.5986,57.81,88,0,8.52,clear sky
1,Alappuzha,IN,2022-08-11 03:09:51,9.49,76.3264,82.0,84,96,8.23,overcast clouds
2,Tasiilaq,GL,2022-08-11 03:09:52,65.6145,-37.6368,37.56,77,89,3.13,overcast clouds
3,Parabel,RU,2022-08-11 03:09:53,58.6978,81.4825,59.85,77,82,8.99,broken clouds
4,Santa Cruz,BO,2022-08-11 03:08:28,-17.8,-63.1667,51.26,76,0,6.91,clear sky
5,Upernavik,GL,2022-08-11 03:09:45,72.7868,-56.1549,40.91,87,100,5.37,overcast clouds
6,Kununurra,AU,2022-08-11 03:09:54,-15.7667,128.7333,82.38,26,0,17.27,clear sky
7,Ancud,CL,2022-08-11 03:09:54,-41.8697,-73.8203,51.22,95,100,14.79,light rain
8,Ushuaia,AR,2022-08-11 03:09:54,-54.8,-68.3,33.46,93,100,3.44,overcast clouds
9,Lensk,RU,2022-08-11 03:09:55,60.7253,114.9278,69.48,53,6,5.41,clear sky
10,Kodiak,US,2022-08-11 03:08:49,57.79,-152.4072,54.91,94,100,6.91,overcast clouds
11,Hithadhoo,MV,2022-08-11 03:09:55,-0.6,73.0833,82.2,72,3,10.11,clear sky
12,Bengkulu,ID,2022-08-11 03:09:56,-3.8004,102.2655,82.54,69,62,2.13,broken clouds
13,Severnyy,RU,2022-08-11 03:09:56,50.677,36.5532,64.44,94,0,11.18,clear sky
14,Yellowknife,CA,2022-08-11 03:08:08,62.456,-114.3525,56.43,59,100,21.59,overcast clouds
15,Arraial Do Cabo,BR,2022-08-11 03:09:57,-22.9661,-42.0278,68.09,67,75,19.75,broken clouds
16,Touros,BR,2022-08-11 03:06:49,-5.1989,-35.4608,72.61,90,33,9.08,scattered clouds
17,Cabo San Lucas,MX,2022-08-11 03:09:27,22.8909,-109.9124,85.6,79,98,9.62,overcast clouds
18,Rikitea,PF,2022-08-11 03:05:04,-23.1203,-134.9692,73.33,75,100,22.1,overcast clouds
19,Ostrovnoy,RU,2022-08-11 03:09:57,68.0531,39.5131,58.62,79,100,25.5,overcast clouds
20,Porto Novo,BJ,2022-08-11 03:07:43,6.4965,2.6036,74.05,89,100,8.48,overcast clouds
21,Antigonish,CA,2022-08-11 03:09:58,45.6169,-61.9986,63.82,93,87,5.77,overcast clouds
22,Okhotsk,RU,2022-08-11 03:06:03,59.3833,143.3,58.96,88,100,9.57,overcast clouds
23,Cooma,AU,2022-08-11 03:09:59,-36.2333,149.1333,47.08,75,100,11.16,moderate rain
24,Saldanha,ZA,2022-08-11 03:10:00,-33.0117,17.9442,55.42,91,100,1.88,overcast clouds
25,Norman Wells,CA,2022-08-11 03:05:50,65.282,-126.8329,57.67,47,56,9.06,broken clouds
26,Port Alfred,ZA,2022-08-11 03:10:00,-33.5906,26.891,58.55,84,72,4.27,broken clouds
27,Punta Arenas,CL,2022-08-11 03:08:08,-53.15,-70.9167,33.91,86,0,6.91,clear sky
28,Kudahuvadhoo,MV,2022-08-11 03:10:01,2.6708,72.8944,81.07,76,7,0.74,clear sky
29,Anaconda,US,2022-08-11 03:10:02,46.1285,-112.9423,74.39,86,98,3.89,overcast clouds
30,San Cristobal,VE,2022-08-11 03:10:02,7.7669,-72.225,71.78,95,100,3.0,overcast clouds
31,Zhuhai,CN,2022-08-11 03:10:03,22.2769,113.5678,82.85,94,40,19.57,shower rain
32,Ejura,GH,2022-08-11 03:10:03,7.3856,-1.3562,70.03,93,95,5.46,overcast clouds
33,Albany,US,2022-08-11 03:10:04,42.6001,-73.9662,66.88,86,12,3.53,few clouds
34,Ahuimanu,US,2022-08-11 03:10:05,21.4447,-157.8378,87.51,67,0,17.27,clear sky
35,Nikolskoye,RU,2022-08-11 03:10:05,59.7035,30.7861,59.81,77,97,4.81,overcast clouds
36,Ketchikan,US,2022-08-11 03:10:06,55.3422,-131.6461,73.87,49,0,9.22,clear sky
37,Clifton,US,2022-08-11 03:07:11,40.8584,-74.1638,79.03,74,75,6.91,broken clouds
38,Busselton,AU,2022-08-11 03:10:07,-33.65,115.3333,58.32,66,58,4.52,broken clouds
39,Dikson,RU,2022-08-11 03:10:07,73.5069,80.5464,41.99,89,100,11.74,overcast clouds
40,San Policarpo,PH,2022-08-11 03:10:08,12.1791,125.5072,84.04,71,13,6.38,few clouds
41,Mecca,SA,2022-08-11 03:10:09,21.4267,39.8261,87.33,67,93,6.11,overcast clouds
42,Kapaa,US,2022-08-11 03:10:09,22.0752,-159.319,84.18,72,75,16.11,broken clouds
43,Matagami,CA,2022-08-11 03:10:10,49.7502,-77.6328,53.44,95,21,6.62,few clouds
44,Ribeira Grande,PT,2022-08-11 03:11:10,38.5167,-28.7,72.32,73,37,6.89,scattered clouds
45,Carnarvon,AU,2022-08-11 03:09:37,-24.8667,113.6333,65.23,34,0,17.29,clear sky
46,Atuona,PF,2022-08-11 03:11:11,-9.8,-139.0333,77.07,76,0,22.91,clear sky
47,Hofn,IS,2022-08-11 03:11:11,64.2539,-15.2082,49.93,85,98,3.91,overcast clouds
48,Airai,TL,2022-08-11 03:11:11,-8.9266,125.4092,73.76,50,47,3.24,scattered clouds
49,Rio Grande,BR,2022-08-11 03:11:12,-32.035,-52.0986,47.95,84,100,5.88,overcast clouds
50,Jamestown,US,2022-08-11 03:11:12,42.097,-79.2353,62.71,58,0,1.01,clear sky
51,Chokurdakh,RU,2022-08-11 03:08:57,70.6333,147.9167,72.1,42,100,9.46,overcast clouds
52,Cedar City,US,2022-08-11 03:11:13,37.6775,-113.0619,70.77,68,0,4.61,clear sky
53,Srednekolymsk,RU,2022-08-11 03:11:13,67.45,153.6833,78.12,43,100,2.1,overcast clouds
54,Ambunti,PG,2022-08-11 03:11:13,-4.2365,142.8448,91.62,52,98,1.99,overcast clouds
55,Barrow,US,2022-08-11 03:11:14,71.2906,-156.7887,46.42,93,100,18.41,light rain
56,Bredasdorp,ZA,2022-08-11 03:08:06,-34.5322,20.0403,53.19,93,100,3.91,overcast clouds
57,Derzhavinsk,KZ,2022-08-11 03:11:15,51.1,66.3167,69.42,58,3,12.19,clear sky
58,Gasa,PS,2022-08-11 03:11:15,31.5,34.4667,72.88,77,0,1.77,clear sky
59,Hermanus,ZA,2022-08-11 03:11:15,-34.4187,19.2345,48.79,89,96,7.52,overcast clouds
60,Bereda,ES,2022-08-11 03:11:16,43.2686,-7.5406,61.14,100,36,1.7,scattered clouds
61,Castro,BR,2022-08-11 03:11:16,-24.7911,-50.0119,46.62,93,99,4.76,overcast clouds
62,Onega,RU,2022-08-11 03:11:16,63.9061,38.1404,59.04,69,97,10.09,overcast clouds
63,Longyearbyen,SJ,2022-08-11 03:11:17,78.2186,15.6401,48.04,71,75,17.27,broken clouds
64,Kaitangata,NZ,2022-08-11 03:11:18,-46.2817,169.8464,44.74,59,24,6.73,few clouds
65,Kaduqli,SD,2022-08-11 03:11:19,11.0167,29.7167,72.07,94,71,4.41,broken clouds
66,Vaini,TO,2022-08-11 03:11:20,-21.2,-175.2,78.96,94,100,17.27,overcast clouds
67,Lagoa,PT,2022-08-11 03:11:20,39.05,-27.9833,70.5,74,7,5.95,clear sky
68,Palana,RU,2022-08-11 03:11:21,59.1167,159.9667,51.58,94,100,5.82,light rain
69,Copiapo,CL,2022-08-11 03:09:16,-27.3667,-70.3333,47.89,43,100,0.98,overcast clouds
70,Lata,PT,2022-08-11 03:11:21,40.1629,-8.3327,60.75,96,1,1.88,clear sky
71,Vyazemskiy,RU,2022-08-11 03:11:22,47.5378,134.7525,74.1,53,8,8.97,clear sky
72,Tuktoyaktuk,CA,2022-08-11 03:11:22,69.4541,-133.0374,46.53,84,100,13.27,light rain
73,Sorland,NO,2022-08-11 03:11:23,67.667,12.6934,53.46,84,54,33.98,broken clouds
74,East London,ZA,2022-08-11 03:11:23,-33.0153,27.9116,60.26,82,89,3.44,overcast clouds
75,Mogadishu,SO,2022-08-11 03:11:24,2.0371,45.3438,75.56,85,73,17.56,light rain
76,Talara,PE,2022-08-11 03:11:24,-4.5772,-81.2719,62.4,89,99,14.16,overcast clouds
77,Luderitz,NA,2022-08-11 03:11:24,-26.6481,15.1594,54.68,66,3,10.74,clear sky
78,Dingle,PH,2022-08-11 03:11:25,10.9995,122.6711,85.41,73,66,5.39,broken clouds
79,New Norfolk,AU,2022-08-11 03:09:22,-42.7826,147.0587,55.92,57,99,4.52,light rain
80,Broken Hill,AU,2022-08-11 03:11:25,-31.95,141.4333,60.4,46,100,21.7,overcast clouds
81,Gualaquiza,EC,2022-08-11 03:11:25,-3.4,-78.55,60.26,96,100,2.37,light rain
82,Nasice,HR,2022-08-11 03:11:26,45.4886,18.0878,58.75,89,10,2.89,clear sky
83,Lashio,MM,2022-08-11 03:08:08,22.9333,97.75,79.12,70,50,1.95,scattered clouds
84,Port Elizabeth,ZA,2022-08-11 03:11:27,-33.918,25.5701,53.31,94,93,3.0,overcast clouds
85,Abu Zabad,SD,2022-08-11 03:11:27,12.35,29.25,74.59,83,82,6.49,broken clouds
86,Worland,US,2022-08-11 03:11:27,44.0169,-107.9554,88.88,19,0,5.75,clear sky
87,Khatanga,RU,2022-08-11 03:11:27,71.9667,102.5,46.13,67,100,13.15,overcast clouds
88,Bilma,NE,2022-08-11 03:12:28,18.6853,12.9164,93.96,13,68,21.52,broken clouds
89,Tazovskiy,RU,2022-08-11 03:12:29,67.4667,78.7,48.47,86,100,9.89,overcast clouds
90,Chavantes,BR,2022-08-11 03:12:29,-23.0389,-49.7094,52.02,83,100,2.68,overcast clouds
91,Capaci,IT,2022-08-11 03:12:29,38.1711,13.2393,78.26,35,0,3.44,clear sky
92,Saint-Joseph,RE,2022-08-11 03:09:32,-21.3667,55.6167,62.98,79,37,13.98,scattered clouds
93,San Patricio,US,2022-08-11 03:12:30,28.017,-97.5169,87.69,66,15,11.25,few clouds
94,Dongying,CN,2022-08-11 03:12:30,37.4564,118.4856,79.57,80,97,5.53,overcast clouds
95,Constitucion,CL,2022-08-11 03:12:30,-35.3333,-72.4167,47.57,84,0,8.08,clear sky
96,Maniitsoq,GL,2022-08-11 03:12:30,65.4167,-52.9,43.07,83,74,7.9,broken clouds
97,Mataura,NZ,2022-08-11 03:12:31,-46.1927,168.8643,44.47,59,31,5.86,scattered clouds
98,Hovd,MN,2022-08-11 03:12:31,48.0056,91.6419,69.24,42,86,4.5,overcast clouds
99,Samarai,PG,2022-08-11 03:12:32,-10.6167,150.6667,79.14,77,97,16.11,overcast clouds
100,Saint-Philippe,RE,2022-08-11 03:12:32,-21.3585,55.7679,63.99,82,73,13.71,light rain
101,Songjianghe,CN,2022-08-11 03:12:32,42.1859,127.479,71.4,58,67,5.08,broken clouds
102,Okha,RU,2022-08-11 03:12:32,53.5739,142.9478,60.31,86,100,11.83,light rain
103,Hobart,AU,2022-08-11 03:08:15,-42.8794,147.3294,56.26,69,0,5.75,clear sky
104,Riyadh,SA,2022-08-11 03:12:05,24.6877,46.7219,95.14,20,66,11.9,broken clouds
105,Esperance,AU,2022-08-11 03:12:33,-33.8667,121.9,58.24,67,83,16.53,broken clouds
106,Pangnirtung,CA,2022-08-11 03:12:33,66.1451,-65.7125,43.14,89,61,0.36,broken clouds
107,Puerto Ayora,EC,2022-08-11 03:12:34,-0.7393,-90.3518,70.56,91,95,5.99,overcast clouds
108,Tual,ID,2022-08-11 03:12:35,-5.6667,132.75,79.88,81,26,14.27,scattered clouds
109,Agadir,MA,2022-08-11 03:12:35,30.4202,-9.5982,68.45,81,0,1.54,clear sky
110,Bluff,NZ,2022-08-11 03:08:11,-46.6,168.3333,44.8,56,8,8.55,clear sky
111,Sept-Iles,CA,2022-08-11 03:12:36,50.2001,-66.3821,60.06,92,14,1.01,few clouds
112,Grootfontein,NA,2022-08-11 03:12:36,-19.5667,18.1167,55.18,17,0,2.13,clear sky
113,Haines Junction,CA,2022-08-11 03:12:36,60.7522,-137.5108,49.15,85,100,2.55,overcast clouds
114,Qaanaaq,GL,2022-08-11 03:12:37,77.484,-69.3632,33.01,68,46,5.77,scattered clouds
115,Narsaq,GL,2022-08-11 03:12:37,60.9167,-46.05,44.82,88,100,8.19,overcast clouds
116,Tiksi,RU,2022-08-11 03:12:38,71.6872,128.8694,53.22,63,100,2.39,overcast clouds
117,Yumen,CN,2022-08-11 03:12:38,40.2833,97.2,84.65,37,47,19.06,scattered clouds
118,Winslow,US,2022-08-11 03:11:37,35.0242,-110.6974,73.58,60,20,4.61,few clouds
119,Chernoistochinsk,RU,2022-08-11 03:12:39,57.7364,59.8719,66.51,75,100,3.36,light rain
120,Yeppoon,AU,2022-08-11 03:12:39,-23.1333,150.7333,69.58,64,56,14.54,broken clouds
121,Rondonopolis,BR,2022-08-11 03:12:40,-16.4708,-54.6356,57.51,51,100,3.51,overcast clouds
122,Krasnogorskoye,RU,2022-08-11 03:12:41,52.2953,86.1979,69.33,73,71,2.91,broken clouds
123,Pevek,RU,2022-08-11 03:12:43,69.7008,170.3133,43.27,91,23,1.68,few clouds
124,Rudnichnyy,RU,2022-08-11 03:12:44,59.617,52.4703,53.51,93,100,9.42,overcast clouds
125,Raudeberg,NO,2022-08-11 03:12:45,61.9875,5.1352,56.07,95,100,24.14,light rain
126,Brae,GB,2022-08-11 03:12:45,60.3964,-1.353,54.21,93,100,11.05,light rain
127,Boyolangu,ID,2022-08-11 03:12:46,-8.1181,111.8935,82.42,73,64,6.85,broken clouds
128,Thompson,CA,2022-08-11 03:12:46,55.7435,-97.8558,57.2,62,1,2.26,clear sky
129,Camacha,PT,2022-08-11 03:09:38,33.0833,-16.3333,67.42,78,20,8.05,few clouds
130,Henties Bay,NA,2022-08-11 03:12:46,-22.116,14.2845,51.58,93,4,2.46,clear sky
131,Zonguldak,TR,2022-08-11 03:12:47,41.25,31.8333,63.45,83,0,6.06,clear sky
132,Palmer,US,2022-08-11 03:12:47,42.1584,-72.3287,71.2,75,40,0.0,scattered clouds
133,Lebu,CL,2022-08-11 03:13:49,-37.6167,-73.65,45.79,86,2,4.07,clear sky
134,Kyshtovka,RU,2022-08-11 03:13:49,56.555,76.6271,67.32,88,52,10.87,broken clouds
135,Oeiras Do Para,BR,2022-08-11 03:13:50,-2.0031,-49.8544,76.68,80,100,4.09,overcast clouds
136,Port Macquarie,AU,2022-08-11 03:13:50,-31.4333,152.9167,63.9,53,100,8.61,overcast clouds
137,Sao Felix Do Xingu,BR,2022-08-11 03:13:08,-6.6447,-51.995,74.07,46,45,0.96,scattered clouds
138,Pokhara,NP,2022-08-11 03:13:51,28.2333,83.9833,81.52,69,99,1.3,overcast clouds
139,Bayir,TR,2022-08-11 03:13:27,37.2687,28.2167,66.72,71,5,4.65,clear sky
140,Belfast,GB,2022-08-11 03:13:51,54.5833,-5.9333,57.02,82,0,3.44,clear sky
141,Geraldton,AU,2022-08-11 03:13:52,-28.7667,114.6,61.21,63,0,11.5,clear sky
142,Roma,US,2022-08-11 03:10:20,43.2128,-75.4557,65.66,91,0,1.01,clear sky
143,Gat,IL,2022-08-11 03:13:37,31.61,34.7642,76.41,100,3,0.65,clear sky
144,Bahia De Caraquez,EC,2022-08-11 03:13:52,-0.6,-80.4167,71.78,85,100,10.25,overcast clouds
145,Yar-Sale,RU,2022-08-11 03:13:53,66.8333,70.8333,57.09,56,30,9.17,scattered clouds
146,Ponta Do Sol,PT,2022-08-11 03:13:54,32.6667,-17.1,70.72,85,22,4.36,few clouds
147,Cayenne,GF,2022-08-11 03:13:55,4.9333,-52.3333,80.1,1,36,7.99,scattered clouds
148,Torbay,CA,2022-08-11 03:13:55,47.6666,-52.7314,58.26,89,100,5.01,overcast clouds
149,Avarua,CK,2022-08-11 03:13:57,-21.2078,-159.775,75.25,73,9,17.27,clear sky
150,Xiongzhou,CN,2022-08-11 03:13:57,25.1167,114.3,87.21,65,96,2.37,overcast clouds
151,Shenjiamen,CN,2022-08-11 03:13:59,29.9576,122.298,84.87,78,26,17.43,scattered clouds
152,Itoman,JP,2022-08-11 03:13:59,26.1247,127.6694,86.77,79,75,6.91,broken clouds
153,Bethel,US,2022-08-11 03:09:36,41.3712,-73.414,73.76,81,0,0.0,clear sky
154,Lundazi,ZM,2022-08-11 03:13:59,-12.2929,33.1782,57.81,60,0,6.24,clear sky
155,Vila Franca Do Campo,PT,2022-08-11 03:14:00,37.7167,-25.4333,71.2,72,96,5.28,overcast clouds
156,Gornopravdinsk,RU,2022-08-11 03:14:00,60.05,69.9,65.93,52,63,5.41,broken clouds
157,Hilo,US,2022-08-11 03:10:19,19.7297,-155.09,89.28,78,20,8.05,few clouds
158,Bambous Virieux,MU,2022-08-11 03:14:01,-20.3428,57.7575,67.21,73,94,18.48,light rain
159,Farsund,NO,2022-08-11 03:14:01,58.0948,6.8047,60.06,100,38,6.49,scattered clouds
160,Polson,US,2022-08-11 03:14:01,47.6936,-114.1632,74.77,72,100,2.68,overcast clouds
161,Cherskiy,RU,2022-08-11 03:14:02,68.75,161.3,69.8,51,10,2.57,clear sky
162,Ashtian,IR,2022-08-11 03:14:02,34.5217,50.0019,68.81,45,4,9.71,clear sky
163,Nambour,AU,2022-08-11 03:14:02,-26.6333,152.95,68.88,72,76,1.99,broken clouds
164,Half Moon Bay,US,2022-08-11 03:14:03,37.4636,-122.4286,72.54,78,20,20.71,few clouds
165,Lucapa,AO,2022-08-11 03:14:03,-8.4192,20.7447,62.06,28,2,5.1,clear sky
166,Pisco,PE,2022-08-11 03:14:04,-13.7,-76.2167,59.05,88,20,4.61,few clouds
167,Filingue,NE,2022-08-11 03:14:04,14.3521,3.3168,85.64,57,21,12.77,few clouds
168,Brokopondo,SR,2022-08-11 03:14:05,4.75,-55.1667,78.78,81,68,7.11,broken clouds
169,Vetapalem,IN,2022-08-11 03:14:05,15.7833,80.3167,84.33,62,42,18.77,scattered clouds
170,Port Keats,AU,2022-08-11 03:14:06,-14.25,129.55,85.55,42,13,7.34,few clouds
171,Keokuk,US,2022-08-11 03:13:11,40.3973,-91.3849,72.09,88,100,0.0,overcast clouds
172,Hasaki,JP,2022-08-11 03:11:59,35.7333,140.8333,91.29,79,30,21.88,scattered clouds
173,Los Llanos De Aridane,ES,2022-08-11 03:12:56,28.6585,-17.9182,67.12,92,20,3.44,few clouds
174,Fuerte Olimpo,PY,2022-08-11 03:14:07,-21.0415,-57.8738,52.47,77,0,5.14,clear sky
175,Cape Town,ZA,2022-08-11 03:12:37,-33.9258,18.4232,56.12,93,99,3.0,overcast clouds
176,Yarega,RU,2022-08-11 03:14:07,63.4354,53.5765,53.53,88,84,4.54,broken clouds
177,Timbiqui,CO,2022-08-11 03:14:08,2.7717,-77.6654,74.1,96,96,4.5,light rain
178,Korla,CN,2022-08-11 03:15:08,41.7597,86.1469,89.78,26,81,15.12,broken clouds
179,Wattegama,LK,2022-08-11 03:15:08,6.7989,81.4808,83.88,52,100,1.74,overcast clouds
180,Tres Lagoas,BR,2022-08-11 03:15:09,-20.7511,-51.6783,52.54,77,0,6.15,clear sky
181,Lorengau,PG,2022-08-11 03:13:24,-2.0226,147.2712,83.98,71,88,4.61,overcast clouds
182,Sumenep,ID,2022-08-11 03:15:10,-7.0167,113.8667,85.51,64,78,8.01,broken clouds
183,Itarema,BR,2022-08-11 03:15:11,-2.9248,-39.9167,76.55,84,89,13.82,overcast clouds
184,Siuna,NI,2022-08-11 03:15:12,13.7332,-84.7773,72.86,97,98,2.84,overcast clouds
185,Mahebourg,MU,2022-08-11 03:15:12,-20.4081,57.7,68.29,68,75,16.11,broken clouds
186,Vondrozo,MG,2022-08-11 03:15:12,-22.8167,47.2833,56.61,92,51,2.24,light rain
187,Georgetown,MY,2022-08-11 03:11:18,5.4112,100.3354,87.89,73,20,5.75,haze
188,Petropavlovsk-Kamchatskiy,RU,2022-08-11 03:15:13,53.0452,158.6483,64.99,68,75,8.95,broken clouds
189,Akyab,MM,2022-08-11 03:15:13,20.15,92.9,80.1,85,100,11.25,overcast clouds
190,Egvekinot,RU,2022-08-11 03:15:13,66.3167,-179.1667,60.24,65,22,6.24,few clouds
191,Saint-Augustin,CA,2022-08-11 03:12:00,51.226,-58.6502,56.28,89,0,8.39,clear sky
192,Fortuna,US,2022-08-11 03:14:01,40.5982,-124.1573,66.34,94,40,9.22,scattered clouds
193,Ust-Koksa,RU,2022-08-11 03:15:14,50.2696,85.6108,68.27,53,36,0.85,scattered clouds
194,Butaritari,KI,2022-08-11 03:15:14,3.0707,172.7902,81.88,74,13,14.09,few clouds
195,Gambela,ET,2022-08-11 03:15:15,8.25,34.5833,69.71,97,100,4.34,light rain
196,Karak,JO,2022-08-11 03:15:15,31.1667,35.75,65.44,71,0,6.26,clear sky
197,Kahului,US,2022-08-11 03:13:31,20.8947,-156.47,87.82,62,20,27.63,few clouds
198,Ust-Ilimsk,RU,2022-08-11 03:15:15,58.0006,102.6619,59.11,90,100,3.4,overcast clouds
199,Husavik,IS,2022-08-11 03:15:16,66.0449,-17.3389,46.24,82,100,4.74,overcast clouds
200,Severo-Kurilsk,RU,2022-08-11 03:15:16,50.6789,156.125,61.05,79,9,7.92,clear sky
201,Xudat,AZ,2022-08-11 03:15:17,41.631,48.681,78.28,54,0,7.56,clear sky
202,Beyneu,KZ,2022-08-11 03:15:17,45.3167,55.2,81.93,31,0,6.58,clear sky
203,Virginia Beach,US,2022-08-11 03:12:37,36.8529,-75.978,78.03,80,75,8.05,broken clouds
204,Svay Rieng,KH,2022-08-11 03:15:18,11.0879,105.7993,84.27,66,100,15.79,overcast clouds
205,Belaya Gora,RU,2022-08-11 03:15:19,68.5333,146.4167,71.17,51,86,5.84,overcast clouds
206,Chuy,UY,2022-08-11 03:15:20,-33.6971,-53.4616,48.33,86,100,3.2,overcast clouds
207,Vardo,NO,2022-08-11 03:15:20,70.3705,31.1107,57.18,88,40,6.91,light intensity shower rain
208,Saint-Jean-Port-Joli,CA,2022-08-11 03:15:21,47.2171,-70.2658,61.81,84,100,15.43,overcast clouds
209,High Rock,BS,2022-08-11 03:15:21,26.6208,-78.2833,83.39,73,4,13.71,clear sky
210,Vao,NC,2022-08-11 03:13:23,-22.6667,167.4833,68.0,57,0,21.97,clear sky
211,Tiebissou,CI,2022-08-11 03:15:22,7.1574,-5.2257,71.69,97,71,4.76,broken clouds
212,Mackenzie,CA,2022-08-11 03:15:11,55.2999,-123.1698,73.87,49,0,2.91,clear sky
213,Houma,US,2022-08-11 03:15:22,29.5958,-90.7195,79.0,93,40,0.0,scattered clouds
214,Dunedin,NZ,2022-08-11 03:15:22,-45.8742,170.5036,45.81,62,60,3.0,broken clouds
215,Port Hardy,CA,2022-08-11 03:12:38,50.6996,-127.4199,59.72,96,98,0.49,light rain
216,Bonavista,CA,2022-08-11 03:15:23,48.6499,-53.1147,56.77,74,100,7.56,overcast clouds
217,Aklavik,CA,2022-08-11 03:14:53,68.2191,-135.0107,61.3,41,96,8.16,overcast clouds
218,Zeya,RU,2022-08-11 03:15:23,53.75,127.2667,63.91,78,100,2.3,light rain
219,Buchanan,LR,2022-08-11 03:15:23,5.8808,-10.0467,75.18,85,99,8.81,overcast clouds
220,Chapais,CA,2022-08-11 03:15:24,49.7834,-74.8492,55.13,95,33,6.38,scattered clouds
221,Soyo,AO,2022-08-11 03:15:24,-6.1349,12.3689,69.64,88,92,8.03,overcast clouds
222,Saskylakh,RU,2022-08-11 03:12:57,71.9167,114.0833,49.6,70,100,14.81,overcast clouds
223,Mar Del Plata,AR,2022-08-11 03:15:25,-38.0023,-57.5575,46.87,87,0,13.0,clear sky
224,Calabozo,VE,2022-08-11 03:16:25,8.9242,-67.4293,71.37,98,82,3.42,broken clouds
225,Ormara,PK,2022-08-11 03:16:25,25.2088,64.6357,84.92,74,100,8.52,overcast clouds
226,Murray Bridge,AU,2022-08-11 03:16:26,-35.1167,139.2667,62.13,39,2,18.66,clear sky
227,Neiafu,TO,2022-08-11 03:16:26,-18.65,-173.9833,83.08,78,40,8.05,scattered clouds
228,Vestmannaeyjar,IS,2022-08-11 03:16:26,63.4427,-20.2734,50.79,82,97,9.71,overcast clouds
229,Poum,NC,2022-08-11 03:14:43,-20.2333,164.0167,71.76,56,1,21.32,clear sky
230,West Bay,KY,2022-08-11 03:16:27,19.3667,-81.4167,82.99,87,20,5.75,few clouds
231,Barreirinhas,BR,2022-08-11 03:16:28,-2.7469,-42.8264,75.72,86,43,4.97,scattered clouds
232,Yaan,NG,2022-08-11 03:16:29,7.3833,8.5667,72.27,97,100,7.0,overcast clouds
233,Cidreira,BR,2022-08-11 03:16:29,-30.1811,-50.2056,58.44,80,79,4.85,broken clouds
234,Malitubog,PH,2022-08-11 03:16:29,7.3156,124.6381,86.11,70,78,1.88,broken clouds
235,Aripuana,BR,2022-08-11 03:16:30,-9.1667,-60.6333,71.17,64,17,2.89,few clouds
236,Nome,US,2022-08-11 03:16:30,64.5011,-165.4064,52.16,82,100,4.61,overcast clouds
237,Faanui,PF,2022-08-11 03:16:30,-16.4833,-151.75,78.3,70,11,7.14,few clouds
238,Acarau,BR,2022-08-11 03:16:31,-2.8856,-40.12,76.03,85,76,13.44,broken clouds
239,Leningradskiy,RU,2022-08-11 03:16:31,69.3833,178.4167,46.98,80,65,6.64,broken clouds
240,Seondha,IN,2022-08-11 03:16:31,26.1578,78.7797,84.42,68,100,21.09,moderate rain
241,Luanda,AO,2022-08-11 03:13:57,-8.8368,13.2343,68.0,88,75,3.44,broken clouds
242,Ha Tinh,VN,2022-08-11 03:16:32,18.3333,105.9,83.64,74,100,6.06,light rain
243,Sterling,US,2022-08-11 03:12:34,39.0062,-77.4286,73.22,97,100,6.91,overcast clouds
244,Sasso Marconi,IT,2022-08-11 03:16:33,44.3995,11.2495,72.5,75,0,2.3,clear sky
245,Valparaiso,CL,2022-08-11 03:16:33,-33.0393,-71.6273,51.48,98,0,4.61,clear sky
246,Luis Correia,BR,2022-08-11 03:16:33,-2.8792,-41.6669,76.17,82,98,10.74,overcast clouds
247,Regidor,CO,2022-08-11 03:16:34,8.6657,-73.8215,78.12,85,100,1.03,overcast clouds
248,Tevaitoa,PF,2022-08-11 03:16:34,-16.7833,-151.5,77.81,72,2,8.5,light rain
249,Iqaluit,CA,2022-08-11 03:14:54,63.7506,-68.5145,41.13,85,9,3.49,clear sky
250,Victoria,HK,2022-08-11 03:16:34,22.2855,114.1577,87.04,89,92,3.0,light rain
251,San-Pedro,CI,2022-08-11 03:16:34,4.7485,-6.6363,74.79,82,100,7.23,overcast clouds
252,Srandakan,ID,2022-08-11 03:16:35,-7.9386,110.2506,82.72,74,66,10.63,broken clouds
253,Asbe Teferi,ET,2022-08-11 03:16:35,9.0833,40.8667,57.34,86,99,7.0,overcast clouds
254,Bac Lieu,VN,2022-08-11 03:13:54,9.285,105.7244,80.83,80,100,10.07,overcast clouds
255,Mount Isa,AU,2022-08-11 03:13:53,-20.7333,139.5,78.57,21,18,5.75,few clouds
256,Gimli,CA,2022-08-11 03:16:36,50.6336,-96.9907,61.61,65,4,6.04,clear sky
257,Sakakah,SA,2022-08-11 03:12:50,29.9697,40.2064,88.27,28,0,6.71,clear sky
258,Fairbanks,US,2022-08-11 03:16:36,64.8378,-147.7164,67.01,42,0,4.61,clear sky
259,Vilyuysk,RU,2022-08-11 03:16:37,63.7553,121.6247,73.36,51,73,6.02,broken clouds
260,Mount Gambier,AU,2022-08-11 03:16:37,-37.8333,140.7667,53.87,81,69,10.71,broken clouds
261,Hay River,CA,2022-08-11 03:15:11,60.8156,-115.7999,61.21,63,31,13.18,scattered clouds
262,Canton,CN,2022-08-11 03:16:04,23.1167,113.25,85.95,69,86,11.3,overcast clouds
263,Bambanglipuro,ID,2022-08-11 03:16:38,-7.95,110.2833,82.85,73,68,10.76,broken clouds
264,Pimenta Bueno,BR,2022-08-11 03:16:38,-11.6725,-61.1936,66.76,57,4,4.43,clear sky
265,Coihaique,CL,2022-08-11 03:16:39,-45.5752,-72.0662,39.81,81,0,3.44,clear sky
266,Udachnyy,RU,2022-08-11 03:16:39,66.4167,112.4,53.46,93,100,17.74,overcast clouds
267,Tigil,RU,2022-08-11 03:16:40,57.8,158.6667,60.49,83,100,4.32,overcast clouds
268,Le Port,RE,2022-08-11 03:16:40,-20.9373,55.2919,66.2,78,16,8.08,few clouds
269,Ahipara,NZ,2022-08-11 03:16:41,-35.1667,173.1667,56.62,73,59,9.75,broken clouds
270,Koson,UZ,2022-08-11 03:16:41,39.0375,65.585,75.52,23,0,16.62,clear sky
271,Borba,BR,2022-08-11 03:17:42,-4.3878,-59.5939,77.54,67,66,2.46,light rain
272,Forestville,US,2022-08-11 03:17:42,38.8451,-76.875,73.49,96,100,4.61,overcast clouds
273,Kuito,AO,2022-08-11 03:17:43,-12.3833,16.9333,49.35,32,3,3.11,clear sky
274,Nanortalik,GL,2022-08-11 03:16:53,60.1432,-45.2371,44.33,98,100,4.14,moderate rain
275,Mayo,US,2022-08-11 03:15:30,38.8876,-76.5119,74.95,96,40,4.61,scattered clouds
276,Aksarka,RU,2022-08-11 03:14:40,66.5606,67.7975,56.35,59,100,8.3,overcast clouds
277,Lompoc,US,2022-08-11 03:17:43,34.6391,-120.4579,69.94,87,0,11.5,clear sky
278,Salalah,OM,2022-08-11 03:15:54,17.0151,54.0924,77.09,94,100,6.91,overcast clouds
279,Nacala,MZ,2022-08-11 03:17:44,-14.5428,40.6728,66.7,89,0,4.74,clear sky
280,Auch,FR,2022-08-11 03:17:44,43.65,0.5833,73.45,73,100,1.01,overcast clouds
281,Tura,IN,2022-08-11 03:17:44,25.5198,90.2201,82.15,70,0,7.87,clear sky
282,Port Hedland,AU,2022-08-11 03:17:44,-20.3167,118.5667,75.25,23,3,17.27,clear sky
283,Palitana,IN,2022-08-11 03:17:45,21.5167,71.8333,81.72,92,100,18.52,moderate rain
284,Nuuk,GL,2022-08-11 03:15:33,64.1835,-51.7216,43.41,93,40,8.01,scattered clouds
285,Zhob,PK,2022-08-11 03:17:45,31.3411,69.4481,79.88,62,42,1.86,scattered clouds
286,Gazli,UZ,2022-08-11 03:17:46,40.1333,63.45,79.0,30,0,15.46,clear sky
287,Sao Filipe,CV,2022-08-11 03:14:15,14.8961,-24.4956,77.58,87,62,8.63,broken clouds
288,Opuwo,NA,2022-08-11 03:17:46,-18.0607,13.84,62.33,22,0,5.19,clear sky
289,Klaksvik,FO,2022-08-11 03:17:46,62.2266,-6.589,52.72,84,66,17.2,broken clouds
290,Zhigansk,RU,2022-08-11 03:14:15,66.7697,123.3711,64.63,67,71,17.36,broken clouds
291,Camopi,GF,2022-08-11 03:17:47,3.1655,-52.3158,71.35,99,59,1.68,broken clouds
292,Ilulissat,GL,2022-08-11 03:17:47,69.2167,-51.1,42.82,87,100,5.75,light intensity drizzle
293,Vestmanna,FO,2022-08-11 03:13:43,62.1564,-7.1664,50.92,87,75,6.91,broken clouds
294,Oudtshoorn,ZA,2022-08-11 03:17:47,-33.5907,22.2014,48.56,91,100,1.54,overcast clouds
295,Lerwick,GB,2022-08-11 03:16:36,60.1545,-1.1494,55.4,94,100,11.25,light rain
296,Havre,FR,2022-08-11 03:17:48,49.5833,0.3333,66.6,72,0,6.91,clear sky
297,Ibarra,EC,2022-08-11 03:17:48,0.35,-78.1167,54.48,93,97,5.57,overcast clouds
298,Giyon,ET,2022-08-11 03:17:48,8.5333,37.9833,56.53,98,100,3.67,light rain
299,Nouadhibou,MR,2022-08-11 03:14:27,20.931,-17.0347,73.6,76,38,24.83,scattered clouds
300,Maldonado,UY,2022-08-11 03:17:49,-34.6667,-54.9167,45.79,89,100,5.86,overcast clouds
301,Cockburn Town,TC,2022-08-11 03:17:49,21.4612,-71.1419,81.79,77,3,18.9,clear sky
302,Constantine,DZ,2022-08-11 03:17:49,36.365,6.6147,67.41,72,0,4.61,clear sky
303,Asau,RO,2022-08-11 03:17:50,46.4333,26.4,59.92,87,22,4.9,few clouds
304,Moranbah,AU,2022-08-11 03:17:50,-22.0016,148.0466,73.42,45,32,14.81,scattered clouds
305,Ingham,US,2022-08-11 03:17:50,42.6,-84.3833,71.22,82,0,5.75,clear sky
306,Wajima,JP,2022-08-11 03:13:19,37.4,136.9,83.55,78,97,12.75,overcast clouds
307,Goryachegorsk,RU,2022-08-11 03:17:51,55.4053,88.9154,71.1,52,2,4.03,clear sky
308,Portland,US,2022-08-11 03:16:49,45.5234,-122.6762,75.15,62,20,1.01,few clouds
309,Chifeng,CN,2022-08-11 03:17:52,42.2683,118.9636,79.45,44,51,1.01,broken clouds
310,Tucurui,BR,2022-08-11 03:17:52,-3.7661,-49.6725,77.65,53,22,0.92,few clouds
311,Sinnamary,GF,2022-08-11 03:14:31,5.3833,-52.95,78.3,87,54,8.7,broken clouds
312,Savinka,RU,2022-08-11 03:17:52,50.0785,47.0994,81.23,31,67,5.14,broken clouds
313,Zittau,DE,2022-08-11 03:17:53,50.9,14.8333,62.53,91,56,1.86,broken clouds
314,Rockport,US,2022-08-11 03:17:53,28.0206,-97.0544,87.85,79,0,11.5,clear sky
315,Keti Bandar,PK,2022-08-11 03:17:54,24.1447,67.4497,82.63,86,100,4.83,overcast clouds
316,Chulman,RU,2022-08-11 03:18:54,56.8479,124.9104,52.83,97,100,5.91,moderate rain
317,Vostok,RU,2022-08-11 03:18:54,46.4856,135.8833,63.64,84,47,7.18,scattered clouds
318,Lahij,YE,2022-08-11 03:18:55,13.1667,44.5833,80.76,70,99,6.76,overcast clouds
319,Mapastepec,MX,2022-08-11 03:18:55,15.4333,-92.9,76.35,91,100,5.17,overcast clouds
320,Christchurch,NZ,2022-08-11 03:18:55,-43.5333,172.6333,46.9,69,100,9.22,overcast clouds
321,Tateyama,JP,2022-08-11 03:18:56,34.9833,139.8667,82.87,82,86,18.57,overcast clouds
322,Tracy,US,2022-08-11 03:16:35,37.7397,-121.4252,82.51,60,0,11.83,clear sky
323,Codrington,AU,2022-08-11 03:18:56,-38.2667,141.9667,56.21,66,95,18.81,overcast clouds
324,Polunochnoye,RU,2022-08-11 03:16:55,60.8697,60.4153,60.17,99,100,1.12,light rain
325,Clyde River,CA,2022-08-11 03:18:56,70.4692,-68.5914,37.9,87,32,4.97,scattered clouds
326,Sonoita,MX,2022-08-11 03:18:57,31.85,-112.8333,93.42,38,11,9.08,few clouds
327,Omboue,GA,2022-08-11 03:18:57,-1.5746,9.2618,72.09,89,83,6.33,broken clouds
328,Jardinopolis,BR,2022-08-11 03:18:58,-21.0178,-47.7639,53.02,71,0,10.36,clear sky
329,Oshakati,NA,2022-08-11 03:18:58,-17.7833,15.6833,59.65,18,0,8.63,clear sky
330,Fukue,JP,2022-08-11 03:18:59,32.6881,128.8419,89.96,70,40,12.66,scattered clouds
331,Gberia Fotombu,SL,2022-08-11 03:18:59,9.8833,-11.1667,70.56,99,100,5.61,moderate rain
332,Kutum,SD,2022-08-11 03:19:00,14.2,24.6667,70.63,80,97,5.1,overcast clouds
333,Ouesso,CG,2022-08-11 03:19:01,1.6136,16.0517,74.64,81,98,2.66,overcast clouds
334,Ayotzintepec,MX,2022-08-11 03:19:01,17.6667,-96.1333,74.03,96,100,3.09,overcast clouds
335,Nanning,CN,2022-08-11 03:19:02,22.8167,108.3167,79.25,97,100,12.82,overcast clouds
336,Bosanska Krupa,BA,2022-08-11 03:19:02,44.8825,16.1514,57.09,73,28,0.89,scattered clouds
337,Ramotswa,BW,2022-08-11 03:19:03,-24.8716,25.8699,42.42,42,0,2.35,clear sky
338,Brigantine,US,2022-08-11 03:17:51,39.4101,-74.3646,77.2,91,75,11.5,light rain
339,Pochutla,MX,2022-08-11 03:15:46,15.7432,-96.4661,79.83,92,99,4.63,overcast clouds
340,Marsa Matruh,EG,2022-08-11 03:19:04,31.3525,27.2453,75.47,75,0,9.55,clear sky
341,Batavia,US,2022-08-11 03:19:04,41.85,-88.3126,75.92,81,0,4.61,clear sky
342,Ust-Ishim,RU,2022-08-11 03:19:05,57.6935,71.1665,65.34,61,9,6.38,clear sky
343,Naze,JP,2022-08-11 03:19:05,28.3667,129.4833,85.12,71,100,1.72,overcast clouds
344,Mastic Beach,US,2022-08-11 03:19:06,40.7668,-72.8521,75.99,93,100,7.0,overcast clouds
345,Killybegs,IE,2022-08-11 03:19:06,54.6333,-8.45,57.81,78,1,2.44,clear sky
346,Bogande,BF,2022-08-11 03:19:06,12.9714,-0.1436,77.43,82,10,8.9,clear sky
347,Saint George,US,2022-08-11 03:19:07,37.1041,-113.5841,85.42,52,0,12.66,clear sky
348,Warrnambool,AU,2022-08-11 03:19:07,-38.3833,142.4833,55.15,65,100,17.05,overcast clouds
349,Katsuura,JP,2022-08-11 03:19:08,35.1333,140.3,83.91,79,33,19.55,light rain
350,Bathsheba,BB,2022-08-11 03:19:08,13.2167,-59.5167,81.21,89,75,11.5,broken clouds
351,Knyaginino,RU,2022-08-11 03:19:09,55.8228,45.0349,57.24,88,10,4.41,clear sky
352,Jinka,ET,2022-08-11 03:19:09,5.65,36.65,64.22,71,100,4.68,overcast clouds
353,Aykhal,RU,2022-08-11 03:18:38,66.0,111.5,53.65,97,100,10.2,light rain
354,Saint-Leu,RE,2022-08-11 03:19:10,-21.15,55.2833,65.26,67,4,3.85,clear sky
355,Fort Frances,CA,2022-08-11 03:19:10,48.5999,-93.4003,61.05,79,0,0.0,clear sky
356,Padang,ID,2022-08-11 03:20:11,-0.9492,100.3543,86.05,65,87,3.06,overcast clouds
357,Shakawe,BW,2022-08-11 03:20:11,-18.3667,21.85,52.86,16,0,4.99,clear sky
358,Piuma,BR,2022-08-11 03:20:12,-20.8378,-40.7219,72.63,60,98,12.33,overcast clouds
359,Yushu,CN,2022-08-11 03:20:12,44.8,126.5333,73.0,73,49,10.13,scattered clouds
360,Sitka,US,2022-08-11 03:19:42,57.0531,-135.33,60.69,82,100,0.0,overcast clouds
361,Atambua,ID,2022-08-11 03:19:39,-9.1061,124.8925,83.34,52,45,2.89,scattered clouds
362,Concepcion Del Oro,MX,2022-08-11 03:20:13,24.6333,-101.4167,68.76,42,64,12.84,broken clouds
363,Gulu,UG,2022-08-11 03:20:14,2.7746,32.299,62.94,93,93,2.39,overcast clouds
364,Umm Lajj,SA,2022-08-11 03:20:14,25.0213,37.2685,87.19,73,82,7.74,broken clouds
365,Namatanai,PG,2022-08-11 03:20:14,-3.6667,152.4333,83.61,71,97,4.92,light rain
366,Iskateley,RU,2022-08-11 03:20:14,67.6803,53.1512,57.33,68,100,10.16,overcast clouds
367,Moncton,CA,2022-08-11 03:20:15,46.1159,-64.8019,65.05,93,100,3.83,overcast clouds
368,Severo-Yeniseyskiy,RU,2022-08-11 03:20:15,60.3725,93.0408,60.1,64,35,7.02,scattered clouds
369,Tuatapere,NZ,2022-08-11 03:20:16,-46.1333,167.6833,46.26,61,19,4.59,few clouds
370,Shingu,JP,2022-08-11 03:20:16,33.7333,135.9833,87.01,63,98,5.86,overcast clouds
371,Asfi,MA,2022-08-11 03:20:16,32.2994,-9.2372,67.8,85,0,8.79,clear sky
372,Meulaboh,ID,2022-08-11 03:18:38,4.1363,96.1285,81.72,71,100,1.28,overcast clouds
373,Pisz,PL,2022-08-11 03:20:17,53.6274,21.8125,53.42,89,6,5.46,clear sky
374,Adrar,MR,2022-08-11 03:20:17,20.5022,-10.0711,90.52,32,70,9.15,broken clouds
375,Hammerfest,NO,2022-08-11 03:20:17,70.6634,23.6821,54.05,100,75,8.05,light rain
376,Concordia,AR,2022-08-11 03:20:18,-31.393,-58.0209,43.79,96,52,6.24,broken clouds
377,Erdenet,MN,2022-08-11 03:20:18,49.0333,104.0833,63.07,63,99,0.81,overcast clouds
378,San Juan Del Sur,NI,2022-08-11 03:20:18,11.2529,-85.8705,78.91,85,100,15.3,overcast clouds
379,Waitati,NZ,2022-08-11 03:20:19,-45.75,170.5667,48.79,64,75,3.04,broken clouds
380,Masuda,JP,2022-08-11 03:20:20,34.6667,131.85,91.67,55,75,6.91,broken clouds
381,Alofi,NU,2022-08-11 03:20:20,-19.0595,-169.9187,80.49,69,75,9.22,broken clouds
382,Biltine,TD,2022-08-11 03:20:20,14.5333,20.9167,78.76,71,97,3.67,overcast clouds
383,Conceicao Do Araguaia,BR,2022-08-11 03:20:22,-8.2578,-49.2647,76.33,43,0,3.71,clear sky
384,Mulege,MX,2022-08-11 03:18:52,26.8833,-111.9833,88.34,58,33,1.07,scattered clouds
385,Auki,SB,2022-08-11 03:20:23,-8.7676,160.7034,82.27,76,26,3.15,scattered clouds
386,Quang Ngai,VN,2022-08-11 03:20:23,15.1167,108.8,83.28,75,99,4.63,overcast clouds
387,Sampit,ID,2022-08-11 03:20:23,-2.5333,112.95,87.17,61,86,4.03,overcast clouds
388,Toccoa,US,2022-08-11 03:15:43,34.5773,-83.3324,76.66,93,100,3.8,overcast clouds
389,Namibe,AO,2022-08-11 03:20:24,-15.1961,12.1522,60.35,90,4,6.2,clear sky
390,San Jose,US,2022-08-11 03:17:04,37.3394,-121.895,74.26,66,0,12.66,clear sky
391,Rio Cuarto,AR,2022-08-11 03:15:54,-33.1307,-64.3499,44.37,70,0,2.3,clear sky
392,Mayahi,NE,2022-08-11 03:20:25,13.9553,7.6712,83.84,60,97,12.37,overcast clouds
393,Phuket,TH,2022-08-11 03:20:25,8.0,98.25,86.22,70,40,12.66,scattered clouds
394,Lima,PE,2022-08-11 03:19:51,-12.0432,-77.0282,59.9,85,100,8.05,overcast clouds
395,Toora-Khem,RU,2022-08-11 03:20:25,52.4675,96.11,71.91,39,2,2.04,clear sky
396,Alice Springs,AU,2022-08-11 03:19:17,-23.7,133.8833,56.75,77,100,0.0,light rain
397,Vila,PT,2022-08-11 03:20:26,42.0304,-8.1588,57.7,88,4,2.71,clear sky
398,Livingston,GB,2022-08-11 03:20:27,55.9029,-3.5226,58.48,82,0,1.14,clear sky
399,Puerto Maldonado,PE,2022-08-11 03:20:28,-12.6,-69.1833,61.61,81,4,0.69,clear sky
400,Noyabrsk,RU,2022-08-11 03:20:29,63.1994,75.4507,59.45,52,27,7.27,scattered clouds
401,Feuchtwangen,DE,2022-08-11 03:21:29,49.1667,10.3333,60.78,66,5,5.19,clear sky
402,Dharchula,IN,2022-08-11 03:21:29,29.85,80.5333,71.31,93,100,3.85,overcast clouds
403,Mahajanga,MG,2022-08-11 03:18:30,-15.7167,46.3167,69.1,55,0,17.63,clear sky
404,Chiredzi,ZW,2022-08-11 03:21:30,-21.05,31.6667,60.26,81,0,0.98,clear sky
405,Inongo,CD,2022-08-11 03:21:30,-1.95,18.2667,71.02,59,74,2.82,broken clouds
406,Omsukchan,RU,2022-08-11 03:21:30,62.5333,155.8,57.18,72,100,7.18,overcast clouds
407,Jaguaruana,BR,2022-08-11 03:21:31,-4.8339,-37.7811,72.64,73,17,5.01,few clouds
408,Ucluelet,CA,2022-08-11 03:16:53,48.9329,-125.5528,61.09,93,93,7.81,overcast clouds
409,Lavrentiya,RU,2022-08-11 03:21:31,65.5833,-171.0,48.16,85,65,4.65,broken clouds
410,Maputo,MZ,2022-08-11 03:21:31,-25.9653,32.5892,62.28,94,0,0.0,fog
411,Svetlogorsk,BY,2022-08-11 03:21:32,52.6333,29.7333,55.6,87,48,7.94,scattered clouds
412,Narasimharajapura,IN,2022-08-11 03:21:32,13.6167,75.5167,71.01,89,100,11.1,light rain
413,Mackay,AU,2022-08-11 03:19:14,-21.15,149.2,67.68,67,88,13.71,overcast clouds
414,Qasigiannguit,GL,2022-08-11 03:21:32,68.8193,-51.1922,43.05,97,100,2.89,light rain
415,Batamshinskiy,KZ,2022-08-11 03:21:33,50.5594,58.2747,70.81,56,2,6.17,clear sky
416,Nishihara,JP,2022-08-11 03:21:33,26.1842,127.7558,87.08,77,75,6.91,haze
417,Guerrero Negro,MX,2022-08-11 03:21:33,27.9769,-114.0611,74.03,72,100,12.12,overcast clouds
418,Healesville,AU,2022-08-11 03:21:34,-37.65,145.5167,56.35,93,100,1.99,moderate rain
419,Mitu,CO,2022-08-11 03:21:34,1.1983,-70.1733,70.65,98,100,0.87,overcast clouds
420,Imbituba,BR,2022-08-11 03:21:34,-28.24,-48.6703,56.86,99,83,13.0,broken clouds
421,Quatre Cocos,MU,2022-08-11 03:17:20,-20.2078,57.7625,68.11,72,92,17.49,light rain
422,Kapiri Mposhi,ZM,2022-08-11 03:21:35,-13.9652,28.6809,53.56,52,0,5.14,clear sky
423,Sur,OM,2022-08-11 03:21:35,22.5667,59.5289,91.11,52,100,11.95,overcast clouds
424,Thinadhoo,MV,2022-08-11 03:21:35,0.5333,72.9333,82.02,74,4,8.63,clear sky
425,Kaoma,ZM,2022-08-11 03:21:36,-14.7833,24.8,52.57,44,0,5.23,clear sky
426,Trairi,BR,2022-08-11 03:19:47,-3.2778,-39.2689,76.46,81,70,11.41,broken clouds
427,Tsabong,BW,2022-08-11 03:21:37,-26.0217,22.401,59.38,24,0,8.93,clear sky
428,Batagay,RU,2022-08-11 03:21:37,67.6333,134.6333,73.83,36,43,4.0,scattered clouds
429,Kawambwa,ZM,2022-08-11 03:21:38,-9.7915,29.0791,55.78,53,2,7.0,clear sky
430,Kalbay,PH,2022-08-11 03:21:38,5.7233,125.4986,84.11,71,29,4.5,scattered clouds
431,Valley City,US,2022-08-11 03:21:39,46.9233,-98.0032,68.52,68,0,6.91,clear sky
432,Sangar,RU,2022-08-11 03:21:39,63.9242,127.4739,68.5,70,33,5.41,scattered clouds
433,Kismayo,SO,2022-08-11 03:21:37,-0.3582,42.5454,74.93,82,96,18.14,overcast clouds
434,Channel-Port Aux Basques,CA,2022-08-11 03:21:39,47.5702,-59.1367,59.27,84,60,9.6,broken clouds
435,Vrangel,RU,2022-08-11 03:21:40,42.7297,133.0839,72.1,89,90,6.06,overcast clouds
436,Kavaratti,IN,2022-08-11 03:19:18,10.5669,72.642,81.09,84,91,18.75,overcast clouds
437,Laguna,US,2022-08-11 03:17:08,38.421,-121.4238,84.92,48,0,9.22,clear sky
438,Villa Carlos Paz,AR,2022-08-11 03:19:16,-31.4241,-64.4978,50.4,75,2,7.83,clear sky
439,Parana,AR,2022-08-11 03:21:40,-31.732,-60.5238,50.58,78,0,10.54,clear sky
440,Ataco,CO,2022-08-11 03:21:41,3.5915,-75.3818,75.15,70,99,5.57,overcast clouds
441,Port Lincoln,AU,2022-08-11 03:21:41,-34.7333,135.8667,54.66,79,83,26.75,light rain
442,Gijon,ES,2022-08-11 03:21:42,43.5357,-5.6615,74.25,97,21,4.0,few clouds
443,Nichinan,JP,2022-08-11 03:21:42,31.6,131.3667,87.48,65,54,5.41,broken clouds
444,Olafsvik,IS,2022-08-11 03:21:43,64.8945,-23.7142,49.19,79,100,8.84,overcast clouds
445,Menongue,AO,2022-08-11 03:21:44,-14.6585,17.691,49.6,33,0,3.58,clear sky
446,Santa Cecilia,BR,2022-08-11 03:22:44,-26.9608,-50.4269,39.52,99,50,3.33,scattered clouds
447,Rorvik,NO,2022-08-11 03:22:44,64.8621,11.2373,55.56,86,99,24.43,overcast clouds
448,Atbasar,KZ,2022-08-11 03:22:45,51.8,68.3333,68.25,68,26,11.03,scattered clouds
449,Tessalit,ML,2022-08-11 03:22:45,20.1986,1.0114,87.58,40,36,7.45,scattered clouds
450,Branca,PT,2022-08-11 03:22:45,40.7665,-8.4826,64.22,97,0,2.59,clear sky
451,Abu Kamal,SY,2022-08-11 03:22:45,34.4506,40.9171,80.69,42,0,10.89,clear sky
452,Kulhudhuffushi,MV,2022-08-11 03:19:44,6.6221,73.07,81.97,83,85,13.51,overcast clouds
453,Mundra,IN,2022-08-11 03:22:46,22.85,69.7333,84.07,81,100,10.51,overcast clouds
454,Karratha,AU,2022-08-11 03:22:46,-20.7377,116.8463,73.2,19,0,22.66,clear sky
455,Eyl,SO,2022-08-11 03:22:46,7.9803,49.8164,77.43,72,76,21.52,broken clouds
456,Kilindoni,TZ,2022-08-11 03:22:47,-7.9139,39.6668,75.65,77,38,10.94,scattered clouds
457,Newport,GB,2022-08-11 03:21:52,51.5877,-2.9984,68.11,64,0,9.13,clear sky
458,Manavalakurichi,IN,2022-08-11 03:22:47,8.1333,77.3,80.06,79,98,12.39,overcast clouds
459,Anadyr,RU,2022-08-11 03:22:48,64.75,177.4833,72.1,49,0,6.71,clear sky
460,Kikwit,CD,2022-08-11 03:22:48,-5.041,18.8162,72.9,27,7,2.3,clear sky
461,Beihai,CN,2022-08-11 03:22:48,21.4833,109.1,81.86,85,100,17.81,overcast clouds
462,Tuy Hoa,VN,2022-08-11 03:20:54,13.0833,109.3,88.45,59,97,9.17,overcast clouds
463,Talnakh,RU,2022-08-11 03:22:49,69.4865,88.3972,51.21,58,68,10.92,broken clouds
464,Shenkursk,RU,2022-08-11 03:22:50,62.1091,42.896,54.18,81,88,4.25,overcast clouds
465,Kristianstad,SE,2022-08-11 03:22:50,56.0313,14.1524,53.94,87,57,1.01,broken clouds
466,Puerto Suarez,BO,2022-08-11 03:22:51,-18.95,-57.8,54.27,65,0,2.24,clear sky
467,Verkhoyansk,RU,2022-08-11 03:22:52,67.5447,133.385,74.52,40,48,5.68,scattered clouds
468,Porto Belo,BR,2022-08-11 03:22:52,-27.1578,-48.5531,57.25,87,63,13.44,broken clouds
469,Dahuk,IQ,2022-08-11 03:22:52,36.8695,42.994,79.97,34,0,3.51,clear sky
470,Chishtian Mandi,PK,2022-08-11 03:22:52,29.8,72.8667,93.36,48,7,15.12,clear sky
471,Dingli,MT,2022-08-11 03:22:53,35.8614,14.3822,76.82,78,20,3.44,few clouds
472,Bayan,CN,2022-08-11 03:22:53,46.0833,127.4,73.72,57,22,8.75,light rain
473,Provideniya,RU,2022-08-11 03:22:53,64.3833,-173.3,53.71,87,20,8.95,fog
474,Emilio Carranza,MX,2022-08-11 03:22:54,19.9711,-96.6114,79.11,79,79,2.89,broken clouds
475,Kuusamo,FI,2022-08-11 03:22:54,65.9667,29.1833,59.04,82,0,13.8,clear sky
476,Znamenskoye,RU,2022-08-11 03:22:54,57.1281,73.8282,65.82,75,21,8.01,few clouds
477,Sisimiut,GL,2022-08-11 03:22:55,66.9395,-53.6735,41.85,95,100,3.65,overcast clouds
478,Uvarovka,RU,2022-08-11 03:22:55,55.5278,35.6061,51.53,82,2,4.38,clear sky
479,Goderich,CA,2022-08-11 03:22:56,43.7501,-81.7165,71.91,80,12,14.85,few clouds
480,San Lorenzo,PY,2022-08-11 03:22:56,-25.3333,-57.5333,50.94,87,71,6.91,broken clouds
481,Verkhnevilyuysk,RU,2022-08-11 03:22:57,63.4453,120.3167,71.49,55,53,6.13,broken clouds
482,Denpasar,ID,2022-08-11 03:21:02,-8.65,115.2167,83.86,83,40,10.36,scattered clouds
483,Sanchez,DO,2022-08-11 03:22:57,19.2281,-69.6137,76.6,90,72,5.44,broken clouds
484,Mildura,AU,2022-08-11 03:22:57,-34.2,142.15,65.07,51,56,19.35,broken clouds
485,Dingzhou,CN,2022-08-11 03:22:58,38.5131,114.9956,84.31,73,58,5.84,broken clouds
486,Santa Ines,BR,2022-08-11 03:22:58,-3.6667,-45.38,72.88,88,10,3.96,clear sky
487,Cernilov,CZ,2022-08-11 03:22:58,50.2627,15.9225,56.08,89,20,3.44,few clouds
488,Somerset,US,2022-08-11 03:22:59,40.5668,-74.5496,79.45,79,75,3.44,broken clouds
489,Hauterive,FR,2022-08-11 03:22:59,46.0901,3.4459,63.36,50,0,2.66,clear sky
490,Tabuk,PH,2022-08-11 03:22:59,17.4189,121.4443,85.03,72,92,3.96,light rain
491,Togur,RU,2022-08-11 03:21:34,58.3631,82.8265,62.69,67,22,10.6,few clouds
492,Walkerburn,GB,2022-08-11 03:24:00,55.6236,-3.017,57.88,76,1,3.65,clear sky
493,Flinders,AU,2022-08-11 03:24:00,-34.5833,150.8552,63.25,64,100,4.0,moderate rain
494,Cobija,BO,2022-08-11 03:24:00,-11.0267,-68.7692,64.29,76,4,3.18,clear sky
495,Kant,IN,2022-08-11 03:24:01,27.8,79.8,85.96,61,100,20.92,heavy intensity rain
496,Wainwright,CA,2022-08-11 03:24:02,52.839,-110.8572,69.39,61,100,7.23,overcast clouds
497,Margate,GB,2022-08-11 03:21:04,51.3813,1.3862,67.89,95,0,4.0,clear sky
498,Cochabamba,BO,2022-08-11 03:24:03,-17.3895,-66.1568,60.8,29,4,5.75,clear sky
499,Novhorodka,UA,2022-08-11 03:24:03,48.3651,32.6578,64.71,90,76,13.69,broken clouds
500,Berlevag,NO,2022-08-11 03:24:04,70.8578,29.0864,57.2,88,100,3.44,overcast clouds
501,Zhanaozen,KZ,2022-08-11 03:24:04,43.3,52.8,81.57,25,0,7.29,clear sky
502,Inuvik,CA,2022-08-11 03:24:04,68.3499,-133.7218,58.05,46,100,9.53,overcast clouds
503,Ust-Kuyga,RU,2022-08-11 03:24:05,70.0167,135.6,61.5,71,100,10.47,overcast clouds
504,Indramayu,ID,2022-08-11 03:21:18,-6.3264,108.32,85.01,66,19,10.02,few clouds
505,Pangkalanbuun,ID,2022-08-11 03:24:05,-2.6833,111.6167,88.05,60,95,5.68,overcast clouds
506,Saint-Pierre,RE,2022-08-11 03:24:06,-21.3393,55.4781,65.88,73,40,13.8,scattered clouds
507,Komsomolskiy,UZ,2022-08-11 03:24:06,40.4272,71.7189,79.52,29,5,6.91,clear sky
508,Gisborne,NZ,2022-08-11 03:24:06,-38.6533,178.0042,51.98,64,57,14.12,broken clouds
509,Dubbo,AU,2022-08-11 03:24:08,-32.25,148.6167,59.13,58,100,19.57,light rain
510,Singaraja,ID,2022-08-11 03:24:10,-8.112,115.0882,83.3,74,94,3.04,overcast clouds
511,Maceio,BR,2022-08-11 03:24:10,-9.6658,-35.7353,72.84,88,20,3.44,few clouds
512,Avera,US,2022-08-11 03:24:11,33.194,-82.5271,73.54,62,100,1.16,overcast clouds
513,Yatou,CN,2022-08-11 03:24:11,37.15,122.3833,72.73,95,100,1.5,light rain
514,Palmas De Monte Alto,BR,2022-08-11 03:24:11,-14.2672,-43.1619,71.96,35,10,4.5,clear sky
515,Elkhart,US,2022-08-11 03:24:12,41.5823,-85.8344,68.14,88,0,0.0,clear sky
516,Vila Velha,BR,2022-08-11 03:19:52,-20.3297,-40.2925,76.95,83,0,10.36,clear sky
517,Rock Springs,US,2022-08-11 03:24:12,41.5875,-109.2029,81.84,19,0,3.44,clear sky
518,Saurimo,AO,2022-08-11 03:24:12,-9.6608,20.3916,59.65,26,1,6.8,clear sky
519,Beloha,MG,2022-08-11 03:20:32,-25.1667,45.05,62.1,63,1,8.5,clear sky
520,Balakovo,RU,2022-08-11 03:24:13,52.0278,47.8007,70.77,74,48,13.94,scattered clouds
521,Fare,PF,2022-08-11 03:24:13,-16.7,-151.0167,77.76,72,0,9.66,light rain
522,Eureka,US,2022-08-11 03:24:13,40.8021,-124.1637,68.67,84,34,2.06,scattered clouds
523,Sao Joao Da Barra,BR,2022-08-11 03:24:14,-21.6403,-41.0511,70.45,67,82,10.69,broken clouds
524,Aksu,CN,2022-08-11 03:24:14,41.1231,80.2644,81.55,33,94,3.04,overcast clouds
525,Shar,KZ,2022-08-11 03:24:14,49.5886,81.0453,78.98,38,43,14.2,scattered clouds
526,Narva-Joesuu,EE,2022-08-11 03:24:14,59.4589,28.0408,58.68,76,99,10.74,overcast clouds
527,Pangoa,PE,2022-08-11 03:24:15,-12.1167,-73.0,63.23,96,74,1.74,broken clouds
528,Dire,ML,2022-08-11 03:24:15,12.2833,-10.9667,74.01,96,93,2.77,light rain
529,Hualmay,PE,2022-08-11 03:24:15,-11.0964,-77.6139,61.48,84,67,9.35,broken clouds
530,Arlit,NE,2022-08-11 03:24:16,18.7369,7.3853,93.43,30,34,8.41,scattered clouds
531,San Javier,ES,2022-08-11 03:24:16,37.8063,-0.8374,78.98,65,0,5.75,clear sky
532,Yulara,AU,2022-08-11 03:20:18,-25.2406,130.9889,59.83,29,98,5.68,overcast clouds
533,Marawi,PH,2022-08-11 03:20:34,7.9986,124.2928,80.51,64,45,3.69,scattered clouds
534,Minab,IR,2022-08-11 03:24:16,27.1467,57.0801,94.5,51,28,9.15,scattered clouds
535,Kavieng,PG,2022-08-11 03:25:17,-2.5744,150.7967,83.88,70,86,7.61,overcast clouds
536,Harwich,GB,2022-08-11 03:25:17,51.9419,1.2844,64.26,91,1,3.0,clear sky
537,Nkongsamba,CM,2022-08-11 03:25:17,4.9547,9.9404,66.58,100,100,1.01,moderate rain
538,Kibala,TD,2022-08-11 03:25:18,9.1104,18.3463,75.15,100,40,3.44,scattered clouds
539,Puerto Escondido,MX,2022-08-11 03:25:18,15.85,-97.0667,77.83,69,100,13.8,overcast clouds
540,Faya,SA,2022-08-11 03:25:18,18.3851,42.4509,64.92,87,87,7.63,overcast clouds
541,Hoa Binh,VN,2022-08-11 03:25:19,20.8133,105.3383,75.38,99,100,3.74,heavy intensity rain
542,Lazo,RU,2022-08-11 03:25:19,43.3817,133.9014,73.09,75,92,2.91,overcast clouds
543,Vanimo,PG,2022-08-11 03:25:19,-2.6741,141.3028,83.17,74,37,5.77,scattered clouds
544,Montevideo,UY,2022-08-11 03:25:20,-34.8335,-56.1674,48.51,75,0,9.22,clear sky
545,Tchibanga,GA,2022-08-11 03:25:20,-2.85,11.0333,68.41,85,73,3.58,broken clouds
546,Makakilo City,US,2022-08-11 03:25:20,21.3469,-158.0858,86.32,55,0,17.27,clear sky
547,Bogovina,RS,2022-08-11 03:25:21,43.895,21.9403,64.06,74,2,1.83,clear sky
548,Bilibino,RU,2022-08-11 03:20:44,68.0546,166.4372,74.71,49,21,7.27,few clouds
549,Port Augusta,AU,2022-08-11 03:25:21,-32.5,137.7667,64.02,31,0,25.08,clear sky
550,Tilichiki,RU,2022-08-11 03:25:22,60.4667,166.1,51.48,96,100,8.34,moderate rain
551,Troitskoye,RU,2022-08-11 03:25:22,52.9821,84.6757,73.67,58,93,2.42,overcast clouds
552,Kaeo,NZ,2022-08-11 03:25:22,-35.1,173.7833,52.14,89,100,11.41,overcast clouds
553,Boditi,ET,2022-08-11 03:25:23,6.9667,37.8667,55.87,95,100,2.57,light rain
554,Hami,CN,2022-08-11 03:25:24,42.8,93.45,95.38,15,99,5.06,overcast clouds
555,Xinpu,CN,2022-08-11 03:25:25,34.5997,119.1594,86.14,82,100,4.27,overcast clouds
556,Moen,NO,2022-08-11 03:25:25,69.1304,18.6123,57.92,62,75,11.5,light rain
557,Boa Vista,BR,2022-08-11 03:25:08,2.8197,-60.6733,82.38,74,0,3.44,clear sky
558,Labuhan,ID,2022-08-11 03:25:25,-6.8844,112.2051,84.96,65,61,4.0,broken clouds
559,Inndyr,NO,2022-08-11 03:25:26,67.0338,14.0276,54.77,87,61,23.29,broken clouds
560,Sompeta,IN,2022-08-11 03:25:26,18.9333,84.6,83.52,75,100,7.34,overcast clouds
561,Wanning,CN,2022-08-11 03:25:27,18.8003,110.3967,85.05,74,100,7.58,light rain
562,Usvyaty,RU,2022-08-11 03:25:27,55.7456,30.7533,52.77,85,38,4.32,scattered clouds
563,Boskovice,CZ,2022-08-11 03:25:28,49.4875,16.66,57.94,71,53,5.19,broken clouds
564,Laukaa,RU,2022-08-11 03:25:28,58.7372,29.8453,52.43,71,52,4.47,broken clouds
565,Anloga,GH,2022-08-11 03:25:28,5.7947,0.8973,73.24,90,100,11.79,overcast clouds
566,Sacramento,US,2022-08-11 03:22:57,38.4666,-121.3177,84.78,47,0,10.36,clear sky
567,Mezen,RU,2022-08-11 03:25:30,65.8522,44.24,56.66,68,96,9.64,overcast clouds
568,Moba,CN,2022-08-11 03:25:30,33.2288,105.0179,75.13,66,82,6.62,broken clouds
569,Nadvoitsy,RU,2022-08-11 03:25:30,63.8667,34.3167,59.27,74,100,11.14,overcast clouds
570,Hobyo,SO,2022-08-11 03:24:48,5.3505,48.5268,76.37,79,96,21.9,overcast clouds
571,Ulladulla,AU,2022-08-11 03:25:31,-35.35,150.4667,62.1,52,100,5.79,overcast clouds
572,Payo,ID,2022-08-11 03:25:31,-3.7508,103.6372,86.81,56,37,3.29,scattered clouds
573,Souillac,MU,2022-08-11 03:25:31,-20.5167,57.5167,68.38,68,75,16.11,light rain
574,Richards Bay,ZA,2022-08-11 03:25:32,-28.783,32.0377,62.08,88,30,2.93,scattered clouds
575,Gornyy,RU,2022-08-11 03:25:32,55.1153,83.9059,72.18,52,90,9.55,overcast clouds
576,Ouahigouya,BF,2022-08-11 03:25:32,13.5828,-2.4216,79.25,77,67,9.1,broken clouds
577,Kushima,JP,2022-08-11 03:25:32,31.4583,131.2333,90.79,59,59,5.79,broken clouds
578,Jalu,LY,2022-08-11 03:25:33,29.0331,21.5482,77.41,32,0,7.45,clear sky
579,Sembakung,ID,2022-08-11 03:25:34,3.8167,117.25,90.64,56,38,1.86,scattered clouds
580,Moyale,KE,2022-08-11 03:25:34,3.5167,39.0584,62.64,88,100,12.75,light rain
581,Madera,US,2022-08-11 03:25:34,37.1666,-119.8343,89.69,25,0,5.08,clear sky
582,Kailua,US,2022-08-11 03:25:35,21.4022,-157.7394,87.78,70,0,11.5,clear sky
583,Preston,GB,2022-08-11 03:26:35,53.7667,-2.7167,62.67,72,6,2.89,clear sky
584,Phan Thiet,VN,2022-08-11 03:26:35,10.9333,108.1,83.5,70,100,12.28,overcast clouds
585,Taoudenni,ML,2022-08-11 03:26:36,22.6783,-3.9836,96.53,16,3,4.32,clear sky
586,Shimoda,JP,2022-08-11 03:26:36,34.6667,138.95,83.1,76,66,11.99,moderate rain
587,Muli,MV,2022-08-11 03:26:36,2.9167,73.5667,80.89,77,14,1.97,few clouds
588,Nyagan,RU,2022-08-11 03:26:37,62.1406,65.3936,62.53,56,100,6.55,overcast clouds
589,Puerto Narino,CO,2022-08-11 03:26:37,-3.7703,-70.3831,73.18,92,94,2.42,overcast clouds
590,Fuyang,CN,2022-08-11 03:26:38,32.9,115.8167,96.93,45,98,10.47,overcast clouds
591,Porbandar,IN,2022-08-11 03:22:07,21.6422,69.6093,81.64,90,100,19.71,overcast clouds
592,Oban,GB,2022-08-11 03:26:38,56.4127,-5.4706,53.38,86,12,2.51,few clouds
593,Zdvinsk,RU,2022-08-11 03:26:39,54.7021,78.661,72.01,62,87,9.6,overcast clouds
594,San Quintin,MX,2022-08-11 03:26:40,30.4833,-115.95,73.08,78,94,9.28,overcast clouds
595,Nemuro,JP,2022-08-11 03:26:40,43.3236,145.575,68.72,94,84,12.66,broken clouds
596,Kieta,PG,2022-08-11 03:26:40,-6.2167,155.6333,85.48,65,100,5.95,light rain
597,Wasilla,US,2022-08-11 03:26:40,61.5814,-149.4394,70.02,53,0,9.22,clear sky
598,Qujing,CN,2022-08-11 03:26:41,25.4833,103.7833,71.74,74,100,11.01,overcast clouds
599,Pacific Grove,US,2022-08-11 03:26:41,36.6177,-121.9166,71.38,82,0,6.91,clear sky
600,Sayyan,YE,2022-08-11 03:26:42,15.1718,44.3244,62.02,72,81,3.36,broken clouds
601,Poya,NC,2022-08-11 03:26:43,-21.35,165.15,71.26,51,3,13.42,clear sky
602,Rawson,AR,2022-08-11 03:26:44,-43.3002,-65.1023,48.63,58,44,8.59,scattered clouds
603,Sigayevo,RU,2022-08-11 03:26:45,56.4216,53.7757,60.91,85,100,8.7,overcast clouds
604,Cape Canaveral,US,2022-08-11 03:26:45,28.4058,-80.6048,85.06,77,0,9.22,clear sky
605,Scarborough,GB,2022-08-11 03:26:45,54.2797,-0.4044,65.34,82,7,4.47,clear sky
606,North Battleford,CA,2022-08-11 03:26:46,52.7834,-108.2847,66.4,50,99,9.33,overcast clouds
607,Bolkhov,RU,2022-08-11 03:26:46,53.4433,36.0044,58.59,93,99,7.9,overcast clouds
608,Ornskoldsvik,SE,2022-08-11 03:26:47,63.2909,18.7153,54.55,100,40,3.44,scattered clouds
609,Pervomayskiy,RU,2022-08-11 03:26:47,53.2485,40.2871,62.29,92,100,9.93,overcast clouds
610,Vung Tau,VN,2022-08-11 03:26:47,10.346,107.0843,80.44,81,100,15.01,overcast clouds
611,Benghazi,LY,2022-08-11 03:26:47,32.1167,20.0667,80.55,69,0,11.23,clear sky
612,Talaya,RU,2022-08-11 03:26:48,61.3833,152.75,60.06,70,100,5.84,light rain
613,Merauke,ID,2022-08-11 03:23:31,-8.4667,140.3333,82.63,70,94,9.95,overcast clouds
614,Pedro Carbo,EC,2022-08-11 03:26:49,-1.8333,-80.2333,69.46,84,99,6.51,overcast clouds
615,San Pedro,PH,2022-08-11 03:26:49,14.35,121.0167,90.32,70,75,5.75,light rain
616,Salinopolis,BR,2022-08-11 03:26:50,-0.6136,-47.3561,78.3,84,71,10.13,broken clouds
617,Iquitos,PE,2022-08-11 03:26:50,-3.7481,-73.2472,75.24,88,75,8.05,broken clouds
618,Bellevue,US,2022-08-11 03:24:26,47.6104,-122.2007,69.66,75,100,10.36,overcast clouds
619,Inhambane,MZ,2022-08-11 03:26:51,-23.865,35.3833,62.58,100,40,0.0,mist
620,Mogok,MM,2022-08-11 03:26:51,22.9167,96.5,75.7,72,29,2.66,scattered clouds
621,Lewisporte,CA,2022-08-11 03:26:52,49.2499,-55.0482,49.37,96,0,6.02,clear sky
622,Adra,ES,2022-08-11 03:23:54,36.7496,-3.0206,80.38,55,0,2.13,clear sky
623,Catuday,PH,2022-08-11 03:26:53,16.2923,119.8062,83.1,72,63,11.23,broken clouds
624,Ponta Delgada,PT,2022-08-11 03:26:53,37.7333,-25.6667,71.51,73,40,5.75,scattered clouds
625,Glendive,US,2022-08-11 03:25:12,47.1053,-104.7125,80.22,41,0,17.27,clear sky
626,Tezu,IN,2022-08-11 03:26:54,27.9167,96.1667,88.38,65,51,3.58,broken clouds
627,Turbat,PK,2022-08-11 03:26:54,26.0023,63.044,92.1,47,97,1.07,overcast clouds
628,Te Anau,NZ,2022-08-11 03:26:54,-45.4167,167.7167,42.21,71,34,1.72,scattered clouds
629,Arnedo,ES,2022-08-11 03:26:55,42.2167,-2.1,71.1,56,97,1.5,overcast clouds
630,Villarrica,PY,2022-08-11 03:27:55,-25.75,-56.4333,52.02,81,63,2.84,broken clouds
631,Nyimba,ZM,2022-08-11 03:27:56,-14.5566,30.8149,61.29,51,0,2.89,clear sky
632,Beya,RU,2022-08-11 03:27:56,53.0533,90.9139,73.04,44,12,6.02,few clouds
633,Liuzhou,CN,2022-08-11 03:27:57,24.3126,109.3892,85.71,67,100,9.98,overcast clouds
634,Gamboula,CF,2022-08-11 03:27:57,4.1178,15.1393,68.52,98,100,3.29,light rain
635,Zhezkazgan,KZ,2022-08-11 03:27:59,47.8043,67.7144,67.98,64,0,11.18,clear sky
636,Ossora,RU,2022-08-11 03:27:59,59.2353,163.0719,58.86,82,100,10.96,overcast clouds
637,Kenai,US,2022-08-11 03:28:01,60.5544,-151.2583,68.09,47,0,10.36,clear sky
638,Malanje,AO,2022-08-11 03:28:02,-9.5402,16.341,61.0,26,1,1.95,clear sky
639,Antofagasta,CL,2022-08-11 03:26:03,-23.65,-70.4,56.48,81,16,3.22,few clouds
640,Balikpapan,ID,2022-08-11 03:28:02,-1.2675,116.8289,83.39,84,20,3.44,few clouds
641,Saint Anthony,US,2022-08-11 03:28:03,45.0205,-93.218,74.93,61,0,8.05,clear sky
642,Ostrov,RU,2022-08-11 03:28:03,57.3439,28.3537,46.13,78,23,3.11,few clouds
643,Collie,AU,2022-08-11 03:28:03,-33.3667,116.15,58.84,56,19,4.21,few clouds
644,Ajdovscina,SI,2022-08-11 03:28:04,45.886,13.9095,72.25,72,80,5.75,broken clouds
645,Boaco,NI,2022-08-11 03:28:04,12.4722,-85.6586,72.59,94,98,6.69,overcast clouds
646,Lasa,IT,2022-08-11 03:28:05,46.6166,10.7002,60.37,95,34,1.86,scattered clouds
647,Grindavik,IS,2022-08-11 03:28:05,63.8424,-22.4338,48.67,93,100,6.91,overcast clouds
648,Tonj,SS,2022-08-11 03:28:06,7.2737,28.6822,70.63,97,100,3.89,overcast clouds
649,Sechura,PE,2022-08-11 03:28:06,-5.5569,-80.8222,63.41,78,80,9.51,broken clouds
650,Maragogi,BR,2022-08-11 03:24:52,-9.0122,-35.2225,72.32,86,11,2.21,few clouds
651,Wukari,NG,2022-08-11 03:28:07,7.85,9.7833,72.32,97,100,8.66,moderate rain
652,Nieuw Amsterdam,SR,2022-08-11 03:28:08,5.8833,-55.0833,77.16,91,11,7.29,few clouds
653,Ugoofaaru,MV,2022-08-11 03:28:09,5.6667,73.0,82.0,80,56,12.57,broken clouds
654,Pingliang,CN,2022-08-11 03:28:10,35.5392,106.6861,83.68,51,39,10.42,scattered clouds
655,Upington,ZA,2022-08-11 03:28:10,-28.4478,21.2561,54.59,26,90,1.05,overcast clouds
656,Serdobsk,RU,2022-08-11 03:28:11,52.4586,44.2169,66.61,77,88,10.27,overcast clouds
657,Isangel,VU,2022-08-11 03:24:52,-19.55,169.2667,77.11,57,75,11.5,broken clouds
658,Ouallam,NE,2022-08-11 03:28:11,14.3188,2.0866,84.25,63,8,12.73,clear sky
659,Maloy,NO,2022-08-11 03:28:11,61.9353,5.1136,56.93,95,100,22.39,light rain
660,Xique-Xique,BR,2022-08-11 03:28:12,-10.8218,-42.7263,71.98,41,0,5.21,clear sky
661,Northam,GB,2022-08-11 03:28:13,51.0333,-4.2167,63.39,58,0,5.86,clear sky
662,Klyuchi,RU,2022-08-11 03:28:13,52.2667,79.1667,68.5,70,100,3.51,overcast clouds
663,Bubaque,GW,2022-08-11 03:28:14,11.2833,-15.8333,80.8,84,99,11.1,light rain
664,San Luis,AR,2022-08-11 03:28:14,-33.295,-66.3356,48.45,48,0,5.17,clear sky
665,Walvis Bay,NA,2022-08-11 03:28:14,-22.9575,14.5053,52.09,100,3,8.05,clear sky
666,Atar,MR,2022-08-11 03:27:21,20.5169,-13.0499,90.82,14,100,9.66,overcast clouds
667,Garden City,US,2022-08-11 03:28:15,42.3256,-83.331,74.98,73,20,4.61,few clouds
668,Nerchinskiy Zavod,RU,2022-08-11 03:28:15,51.3088,119.61,63.32,56,91,10.85,overcast clouds
669,Pontiac,US,2022-08-11 03:27:53,42.6389,-83.2911,73.94,75,0,4.61,clear sky
670,Basti,IN,2022-08-11 03:28:16,26.8,82.7167,86.41,62,82,21.3,broken clouds
671,Hambantota,LK,2022-08-11 03:28:16,6.1241,81.1185,84.54,79,20,5.75,few clouds
672,Ardesen,TR,2022-08-11 03:28:16,41.1911,40.9875,77.31,82,70,6.11,broken clouds
673,Ladario,BR,2022-08-11 03:28:17,-19.0047,-57.6017,54.59,65,0,3.33,clear sky
674,Chesapeake,US,2022-08-11 03:28:03,36.819,-76.2749,77.99,84,0,8.05,clear sky
675,Jevargi,IN,2022-08-11 03:29:18,17.0167,76.7667,76.32,80,100,16.69,overcast clouds
676,Petropavlovka,RU,2022-08-11 03:29:18,50.6114,105.3196,69.24,54,16,4.47,few clouds
677,Yerbogachen,RU,2022-08-11 03:29:18,61.2767,108.0108,68.07,60,12,6.78,few clouds
678,Kuah,MY,2022-08-11 03:29:19,6.3265,99.8432,87.78,74,20,3.44,few clouds
679,Ugep,NG,2022-08-11 03:29:19,5.8086,8.0812,72.55,98,100,2.86,light rain
680,Tazmalt,DZ,2022-08-11 03:29:21,36.3868,4.3989,76.51,35,0,3.02,clear sky
